visibility,valid,humidity,humidity_S,wind,barometricPressure,validTimeLocal,validTimeUtc,temperature_S,temperature,high,low,feelsLikeTemperature,feelsLikeTemperature_S,dewPoint,shortDescription,description,icon,iconCode,lastUpdated,sunsetTime,sunriseTime,city_name,latitude,longitude
10,True,65,65,E 5 mph,30.43,2025-02-12T17:55:08-0500,1739400908,22,22,25,4,15,15,12,Cloudy,Cloudy,07,26,2025-01-12 17:55:00,05:11 PM,06:47 AM,Alton,43.46,-71.22
10,True,72,72,NE 4 mph,30.41,2025-02-12T17:55:50-0500,1739400950,27,27,30,15,23,23,20,Cloudy,Cloudy,07,26,2025-01-12 17:55:00,05:14 PM,06:47 AM,Amherst,42.86,-71.62
10,True,72,72,NNE 3 mph,30.4,2025-02-12T17:55:07-0500,1739400907,25,25,28,9,25,25,17,Cloudy,Cloudy,07,26,2025-01-12 17:55:00,05:15 PM,06:49 AM,Antrim,43.04,-71.95
10,True,60,60,E 4 mph,30.42,2025-02-12T17:55:07-0500,1739400907,23,23,27,4,18,18,11,Cloudy,Cloudy,07,26,2025-01-12 17:55:00,05:12 PM,06:49 AM,Ashland,43.7,-71.63
9,True,63,63,W 13 mph,30.43,2025-02-12T17:52:20-0500,1739400740,23,23,27,6,10,10,12,Cloudy,Cloudy,07,26,2025-01-12 17:52:00,05:10 PM,06:48 AM,Bartlett,44.07,-71.28
10,True,62,62,E 5 mph,30.42,2025-02-12T17:56:14-0500,1739400974,24,24,26,5,17,17,13,Cloudy,Cloudy,07,26,2025-01-12 17:56:00,05:12 PM,06:48 AM,Belmont,43.44,-71.48
10,True,73,73,NNE 3 mph,30.4,2025-02-12T17:57:10-0500,1739401030,25,25,28,9,25,25,18,Cloudy,Cloudy,07,26,2025-01-12 17:57:00,05:15 PM,06:49 AM,Bennington,43.0,-71.92
10,True,65,65,WSW 5 mph,30.42,2025-02-12T18:00:37-0500,1739401237,18,18,26,-1,10,10,8,Fair,Fair,34,33,2025-01-12 18:00:00,05:09 PM,06:49 AM,Berlin city,44.49,-71.26
10,True,63,63,SW 3 mph,30.4,2025-02-12T17:52:06-0500,1739400726,20,20,29,4,20,20,10,M Cloudy,Mostly Cloudy,38,27,2025-01-12 17:52:00,05:12 PM,06:50 AM,Bethlehem,44.28,-71.69
10,True,69,69,E 5 mph,30.4,2025-02-12T17:51:45-0500,1739400705,22,22,25,2,16,16,13,Cloudy,Cloudy,07,26,2025-01-12 17:51:00,05:15 PM,06:50 AM,Blodgett Landing,43.38,-72.04
10,True,68,68,E 3 mph,30.4,2025-02-12T17:53:20-0500,1739400800,25,25,27,4,25,25,16,Cloudy,Cloudy,07,26,2025-01-12 17:53:00,05:14 PM,06:49 AM,Bradford,43.27,-71.96
10,True,60,60,NE 3 mph,30.42,2025-02-12T17:58:49-0500,1739401129,23,23,28,2,23,23,12,Cloudy,Cloudy,07,26,2025-01-12 17:58:00,05:13 PM,06:49 AM,Bristol,43.6,-71.75
10,True,63,63,E 5 mph,30.4,2025-02-12T18:00:41-0500,1739401241,23,23,27,-2,16,16,12,Cloudy,Cloudy,07,26,2025-01-12 18:00:00,05:14 PM,06:50 AM,Canaan,43.65,-72.02
10,True,60,60,ESE 4 mph,30.44,2025-02-12T18:00:42-0500,1739401242,22,22,26,1,17,17,10,Cloudy,Cloudy,07,26,2025-01-12 18:00:00,05:10 PM,06:47 AM,Center Ossipee,43.75,-71.15
10,True,62,62,WNW 7 mph,30.43,2025-02-12T17:52:06-0500,1739400726,22,22,27,7,13,13,11,Cloudy,Cloudy,07,26,2025-01-12 17:52:00,05:11 PM,06:48 AM,Center Sandwich,43.81,-71.44
10,True,64,64,NNW 2 mph,30.39,2025-02-12T17:54:45-0500,1739400885,26,26,29,6,26,26,16,Cloudy,Cloudy,07,26,2025-01-12 17:54:00,05:16 PM,06:51 AM,Charlestown,43.24,-72.42
10,True,63,63,NE 3 mph,30.39,2025-02-12T17:59:50-0500,1739401190,26,26,29,5,22,22,15,Cloudy,Cloudy,07,26,2025-01-12 17:59:00,05:16 PM,06:51 AM,Claremont city,43.38,-72.34
10,True,60,60,NNW 2 mph,30.42,2025-02-12T17:57:16-0500,1739401036,16,16,25,-1,16,16,4,Clear,Clear,33,31,2025-01-12 17:57:00,05:10 PM,06:50 AM,Colebrook,44.89,-71.49
10,True,63,63,ENE 5 mph,30.42,2025-02-12T18:00:04-0500,1739401204,26,26,29,5,21,21,15,Cloudy,Cloudy,07,26,2025-01-12 18:00:00,05:13 PM,06:48 AM,Concord city,43.23,-71.56
10,True,64,64,ENE 4 mph,30.41,2025-02-12T17:55:54-0500,1739400954,26,26,29,2,22,22,15,Cloudy,Cloudy,07,26,2025-01-12 17:55:00,05:14 PM,06:48 AM,Contoocook,43.22,-71.71
10,True,56,56,W 8 mph,30.44,2025-02-12T17:53:23-0500,1739400803,23,23,30,2,14,14,10,Cloudy,Cloudy,07,26,2025-01-12 17:53:00,05:10 PM,06:47 AM,Conway,43.98,-71.13
10,True,69,69,NE 7 mph,30.41,2025-02-12T18:00:03-0500,1739401203,26,26,29,16,18,18,17,Cloudy,Cloudy,07,26,2025-01-12 18:00:00,05:12 PM,06:46 AM,Derry,42.89,-71.28
10,True,68,68,NE 6 mph,30.43,2025-02-12T17:50:48-0500,1739400648,26,26,28,14,19,19,16,Cloudy,Cloudy,07,26,2025-01-12 17:50:00,05:10 PM,06:45 AM,Dover city,43.19,-70.88
10,True,68,68,NNE 5 mph,30.43,2025-02-12T17:59:38-0500,1739401178,26,26,28,13,20,20,17,Cloudy,Cloudy,07,26,2025-01-12 17:59:00,05:11 PM,06:45 AM,Durham,43.14,-70.92
10,True,69,69,NE 5 mph,30.41,2025-02-12T17:59:42-0500,1739401182,28,28,32,13,22,22,19,Cloudy,Cloudy,07,26,2025-01-12 17:59:00,05:13 PM,06:47 AM,East Merrimack,42.87,-71.48
10,True,65,65,E 5 mph,30.4,2025-02-12T18:00:05-0500,1739401205,23,23,28,-2,17,17,13,Cloudy,Cloudy,07,26,2025-01-12 18:00:00,05:15 PM,06:51 AM,Enfield,43.64,-72.15
10,True,69,69,NNE 5 mph,30.42,2025-02-12T17:57:33-0500,1739401053,26,26,29,12,20,20,17,Cloudy,Cloudy,07,26,2025-01-12 17:57:00,05:11 PM,06:45 AM,Epping,43.03,-71.09
10,True,69,69,NE 7 mph,30.42,2025-02-12T17:55:03-0500,1739400903,28,28,30,17,20,20,19,Cloudy,Cloudy,07,26,2025-01-12 17:55:00,05:11 PM,06:45 AM,Exeter,42.98,-70.95
10,True,67,67,ENE 5 mph,30.44,2025-02-12T17:54:52-0500,1739400892,22,22,25,5,16,16,13,Cloudy,Cloudy,07,26,2025-01-12 17:54:00,05:11 PM,06:46 AM,Farmington,43.4,-71.07
10,True,62,62,E 3 mph,30.41,2025-02-12T17:52:42-0500,1739400762,25,25,28,2,20,20,13,Cloudy,Cloudy,07,26,2025-01-12 17:52:00,05:13 PM,06:48 AM,Franklin city,43.45,-71.67
10,True,68,68,ENE 5 mph,30.41,2025-02-12T17:58:07-0500,1739401087,26,26,29,7,21,21,17,Cloudy,Cloudy,07,26,2025-01-12 17:58:00,05:13 PM,06:47 AM,Goffstown,43.02,-71.6
10,True,63,63,W 11 mph,30.42,2025-02-12T17:52:08-0500,1739400728,22,22,27,5,11,11,11,M Cloudy,Mostly Cloudy,38,27,2025-01-12 17:52:00,05:09 PM,06:48 AM,Gorham,44.39,-71.19
9,True,74,74,NE 4 mph,30.4,2025-02-12T17:55:25-0500,1739400925,26,26,28,11,21,21,18,Cloudy,Cloudy,07,26,2025-01-12 17:55:00,05:15 PM,06:48 AM,Greenville,42.77,-71.8
10,True,60,60,NW 2 mph,30.4,2025-02-12T18:00:02-0500,1739401202,19,19,28,2,19,19,8,Clear,Clear,33,31,2025-01-12 18:00:00,05:10 PM,06:50 AM,Groveton,44.6,-71.52
10,True,67,67,ENE 9 mph,30.42,2025-02-12T18:00:35-0500,1739401235,29,29,30,20,20,20,19,Cloudy,Cloudy,07,26,2025-01-12 18:00:00,05:11 PM,06:44 AM,Hampton,42.94,-70.83
10,True,67,67,ENE 12 mph,30.41,2025-02-12T17:51:52-0500,1739400712,30,30,31,21,20,20,20,Cloudy,Cloudy,07,26,2025-01-12 17:51:00,05:10 PM,06:44 AM,Hampton Beach,42.91,-70.81
10,True,74,74,NNW 2 mph,30.4,2025-02-12T17:56:53-0500,1739401013,25,25,28,8,25,25,18,Cloudy,Cloudy,07,26,2025-01-12 17:56:00,05:15 PM,06:49 AM,Hancock,42.97,-71.98
10,True,59,59,E 5 mph,30.39,2025-02-12T18:00:16-0500,1739401216,26,26,30,2,21,21,14,Cloudy,Cloudy,07,26,2025-01-12 18:00:00,05:15 PM,06:51 AM,Hanover,43.71,-72.28
10,True,67,67,ENE 3 mph,30.41,2025-02-12T17:57:37-0500,1739401057,26,26,28,5,23,23,17,Cloudy,Cloudy,07,26,2025-01-12 17:57:00,05:14 PM,06:49 AM,Henniker,43.18,-71.82
10,True,69,69,NE 3 mph,30.41,2025-02-12T17:55:47-0500,1739400947,25,25,28,8,22,22,17,Cloudy,Cloudy,07,26,2025-01-12 17:55:00,05:14 PM,06:49 AM,Hillsborough,43.11,-71.9
10,True,67,67,E 4 mph,30.37,2025-02-12T17:57:35-0500,1739401055,28,28,31,5,24,24,19,Cloudy,Cloudy,07,26,2025-01-12 17:57:00,05:17 PM,06:50 AM,Hinsdale,42.79,-72.49
10,True,65,65,ENE 6 mph,30.42,2025-02-12T17:55:34-0500,1739400934,27,27,29,11,20,20,16,Cloudy,Cloudy,07,26,2025-01-12 17:55:00,05:13 PM,06:47 AM,Hooksett,43.09,-71.46
10,True,73,73,NE 6 mph,30.4,2025-02-12T17:56:43-0500,1739401003,28,28,32,17,22,22,21,Cloudy,Cloudy,07,26,2025-01-12 17:56:00,05:13 PM,06:46 AM,Hudson,42.76,-71.43
10,True,74,74,W 0 mph,30.39,2025-02-12T18:00:02-0500,1739401202,24,24,27,5,24,24,17,Cloudy,Cloudy,07,26,2025-01-12 18:00:00,05:15 PM,06:49 AM,Jaffrey,42.81,-72.02
10,True,69,69,NNE 3 mph,30.38,2025-02-12T17:58:25-0500,1739401105,28,28,31,7,24,24,19,Cloudy,Cloudy,07,26,2025-01-12 17:58:00,05:16 PM,06:50 AM,Keene city,42.95,-72.3
10,True,62,62,NE 3 mph,30.42,2025-02-12T17:56:48-0500,1739401008,22,22,25,2,18,18,11,Cloudy,Cloudy,07,26,2025-01-12 17:56:00,05:12 PM,06:48 AM,Laconia city,43.57,-71.48
10,True,63,63,WNW 2 mph,30.4,2025-02-12T17:53:35-0500,1739400815,21,21,29,1,21,21,10,M Cloudy,Mostly Cloudy,38,27,2025-01-12 17:53:00,05:11 PM,06:50 AM,Lancaster,44.49,-71.57
10,True,64,64,E 5 mph,30.39,2025-02-12T17:51:57-0500,1739400717,25,25,29,2,19,19,15,Cloudy,Cloudy,07,26,2025-01-12 17:51:00,05:15 PM,06:51 AM,Lebanon city,43.64,-72.25
10,True,63,63,SW 4 mph,30.42,2025-02-12T17:58:41-0500,1739401121,20,20,25,4,14,14,9,P Cloudy,Partly Cloudy,35,29,2025-01-12 17:58:00,05:12 PM,06:49 AM,Lincoln,44.06,-71.67
10,True,59,59,WSW 1 mph,30.4,2025-02-12T17:55:42-0500,1739400942,25,25,30,6,25,25,12,P Cloudy,Partly Cloudy,35,29,2025-01-12 17:55:00,05:13 PM,06:51 AM,Lisbon,44.21,-71.91
10,True,64,64,W 1 mph,30.4,2025-02-12T17:54:39-0500,1739400879,21,21,29,4,21,21,11,Fair,Fair,34,33,2025-01-12 17:54:00,05:12 PM,06:50 AM,Littleton,44.32,-71.76
10,True,68,68,NE 7 mph,30.41,2025-02-12T17:51:15-0500,1739400675,28,28,30,16,20,20,19,Cloudy,Cloudy,07,26,2025-01-12 17:51:00,05:13 PM,06:46 AM,Londonderry,42.85,-71.36
10,True,62,62,E 5 mph,30.42,2025-02-12T17:50:08-0500,1739400608,25,25,27,6,19,19,14,Cloudy,Cloudy,07,26,2025-01-12 17:50:00,05:12 PM,06:47 AM,Loudon,43.28,-71.46
10,True,66,66,NE 7 mph,30.41,2025-02-12T17:54:02-0500,1739400842,27,27,30,12,20,20,17,Cloudy,Cloudy,07,26,2025-01-12 17:54:00,05:13 PM,06:47 AM,Manchester city,42.98,-71.44
10,True,73,73,ENE 4 mph,30.38,2025-02-12T17:51:13-0500,1739400673,26,26,30,6,22,22,19,Cloudy,Cloudy,07,26,2025-01-12 17:51:00,05:16 PM,06:50 AM,Marlborough,42.9,-72.21
10,True,59,59,E 5 mph,30.43,2025-02-12T17:51:30-0500,1739400690,23,23,26,1,16,16,10,Cloudy,Cloudy,07,26,2025-01-12 17:51:00,05:11 PM,06:47 AM,Melvin Village,43.69,-71.3
10,True,61,61,E 5 mph,30.43,2025-02-12T17:55:12-0500,1739400912,22,22,26,5,16,16,11,Cloudy,Cloudy,07,26,2025-01-12 17:55:00,05:12 PM,06:48 AM,Meredith,43.66,-71.5
10,True,74,74,ENE 4 mph,30.4,2025-02-12T17:52:30-0500,1739400750,27,27,30,14,22,22,20,Cloudy,Cloudy,07,26,2025-01-12 17:52:00,05:14 PM,06:47 AM,Milford,42.83,-71.66
10,True,64,64,ENE 4 mph,30.44,2025-02-12T17:58:55-0500,1739401135,24,24,26,4,18,18,13,Cloudy,Cloudy,07,26,2025-01-12 17:58:00,05:10 PM,06:46 AM,Milton,43.4,-70.99
10,True,63,63,ENE 4 mph,30.44,2025-02-12T17:57:51-0500,1739401071,23,23,26,5,18,18,12,Cloudy,Cloudy,07,26,2025-01-12 17:57:00,05:10 PM,06:46 AM,Milton Mills,43.5,-70.97
10,True,57,57,SW 2 mph,30.4,2025-02-12T17:52:22-0500,1739400742,25,25,28,5,25,25,12,M Cloudy,Mostly Cloudy,38,27,2025-01-12 17:52:00,05:13 PM,06:51 AM,Mountain Lakes,44.12,-71.96
10,True,76,76,NE 6 mph,30.4,2025-02-12T17:55:30-0500,1739400930,28,28,31,16,21,21,21,Cloudy,Cloudy,07,26,2025-01-12 17:55:00,05:13 PM,06:46 AM,Nashua city,42.75,-71.49
10,True,61,61,NE 3 mph,30.42,2025-02-12T17:57:50-0500,1739401070,23,23,27,2,23,23,11,Cloudy,Cloudy,07,26,2025-01-12 17:57:00,05:13 PM,06:49 AM,New Hampton,43.61,-71.65
10,True,68,68,ENE 3 mph,30.41,2025-02-12T17:56:40-0500,1739401000,22,22,25,3,17,17,13,Cloudy,Cloudy,07,26,2025-01-12 17:56:00,05:14 PM,06:50 AM,New London,43.41,-71.98
10,True,67,67,NE 7 mph,30.42,2025-02-12T17:50:59-0500,1739400659,27,27,29,16,20,20,18,Cloudy,Cloudy,07,26,2025-01-12 17:50:00,05:11 PM,06:45 AM,Newfields,43.04,-70.94
10,True,68,68,NNE 5 mph,30.43,2025-02-12T17:59:13-0500,1739401153,27,27,28,14,21,21,18,Cloudy,Cloudy,07,26,2025-01-12 17:59:00,05:11 PM,06:45 AM,Newmarket,43.08,-70.94
10,True,67,67,NE 4 mph,30.4,2025-02-12T17:55:00-0500,1739400900,24,24,28,2,20,20,15,Cloudy,Cloudy,07,26,2025-01-12 17:55:00,05:15 PM,06:50 AM,Newport,43.37,-72.18
10,True,57,57,W 8 mph,30.44,2025-02-12T17:57:09-0500,1739401029,23,23,28,5,13,13,10,Cloudy,Cloudy,07,26,2025-01-12 17:57:00,05:10 PM,06:47 AM,North Conway,44.05,-71.12
10,True,63,63,N 2 mph,30.38,2025-02-12T17:59:43-0500,1739401183,27,27,30,6,27,27,17,Cloudy,Cloudy,07,26,2025-01-12 17:59:00,05:17 PM,06:51 AM,North Walpole,43.15,-72.45
10,True,62,62,SW 3 mph,30.42,2025-02-12T17:55:54-0500,1739400954,23,23,28,5,18,18,12,P Cloudy,Partly Cloudy,35,29,2025-01-12 17:55:00,05:12 PM,06:50 AM,North Woodstock,44.04,-71.69
8,True,76,76,W 2 mph,30.39,2025-02-12T17:51:23-0500,1739400683,25,25,28,6,25,25,18,Cloudy,Cloudy,07,26,2025-01-12 17:51:00,05:15 PM,06:49 AM,Peterborough,42.88,-71.96
10,True,69,69,ENE 5 mph,30.41,2025-02-12T17:53:15-0500,1739400795,26,26,30,11,20,20,18,Cloudy,Cloudy,07,26,2025-01-12 17:53:00,05:13 PM,06:47 AM,Pinardville,43.0,-71.52
10,True,63,63,ENE 5 mph,30.43,2025-02-12T17:57:33-0500,1739401053,25,25,27,3,19,19,14,Cloudy,Cloudy,07,26,2025-01-12 17:57:00,05:12 PM,06:47 AM,Pittsfield,43.3,-71.33
10,True,59,59,E 5 mph,30.39,2025-02-12T17:56:21-0500,1739400981,27,27,30,5,22,22,15,Cloudy,Cloudy,07,26,2025-01-12 17:56:00,05:16 PM,06:51 AM,Plainfield,43.53,-72.35
10,True,63,63,E 3 mph,30.42,2025-02-12T17:54:44-0500,1739400884,22,22,26,2,17,17,11,Cloudy,Cloudy,07,26,2025-01-12 17:54:00,05:13 PM,06:49 AM,Plymouth,43.74,-71.69
10,True,66,66,ENE 9 mph,30.42,2025-02-12T17:52:30-0500,1739400750,28,28,29,19,19,19,18,Cloudy,Cloudy,07,26,2025-01-12 17:52:00,05:10 PM,06:44 AM,Portsmouth city,43.06,-70.78
10,True,67,67,NE 6 mph,30.42,2025-02-12T17:53:03-0500,1739400783,27,27,29,13,20,20,17,Cloudy,Cloudy,07,26,2025-01-12 17:53:00,05:12 PM,06:46 AM,Raymond,43.03,-71.17
10,True,65,65,ENE 5 mph,30.43,2025-02-12T17:53:17-0500,1739400797,25,25,28,9,19,19,15,Cloudy,Cloudy,07,26,2025-01-12 17:53:00,05:10 PM,06:45 AM,Rochester city,43.3,-70.98
10,True,63,63,E 4 mph,30.44,2025-02-12T17:56:01-0500,1739400961,22,22,26,4,16,16,12,Cloudy,Cloudy,07,26,2025-01-12 17:56:00,05:10 PM,06:46 AM,Sanbornville,43.55,-71.03
10,True,68,68,ENE 11 mph,30.41,2025-02-12T17:52:56-0500,1739400776,30,30,31,21,20,20,20,Cloudy,Cloudy,07,26,2025-01-12 17:52:00,05:11 PM,06:44 AM,Seabrook Beach,42.89,-70.82
10,True,67,67,ENE 5 mph,30.43,2025-02-12T17:50:30-0500,1739400630,25,25,28,12,19,19,16,Cloudy,Cloudy,07,26,2025-01-12 17:50:00,05:10 PM,06:45 AM,Somersworth city,43.25,-70.89
10,True,65,65,NE 5 mph,30.42,2025-02-12T17:59:33-0500,1739401173,26,26,28,12,20,20,16,Cloudy,Cloudy,07,26,2025-01-12 17:59:00,05:13 PM,06:47 AM,South Hooksett,43.03,-71.43
10,True,60,60,ESE 6 mph,30.43,2025-02-12T17:54:30-0500,1739400870,23,23,26,2,16,16,11,Cloudy,Cloudy,07,26,2025-01-12 17:54:00,05:11 PM,06:48 AM,Suissevale,43.72,-71.36
10,True,65,65,ENE 5 mph,30.42,2025-02-12T17:50:55-0500,1739400655,26,26,29,10,19,19,16,Cloudy,Cloudy,07,26,2025-01-12 17:50:00,05:13 PM,06:47 AM,Suncook,43.14,-71.45
10,True,62,62,ENE 4 mph,30.42,2025-02-12T17:56:57-0500,1739401017,24,24,27,5,19,19,13,Cloudy,Cloudy,07,26,2025-01-12 17:56:00,05:13 PM,06:48 AM,Tilton Northfield,43.44,-71.59
9,True,77,77,NE 4 mph,30.38,2025-02-12T17:55:22-0500,1739400922,25,25,28,7,19,19,18,Cloudy,Cloudy,07,26,2025-01-12 17:55:00,05:16 PM,06:49 AM,Troy,42.83,-72.18
10,True,64,64,ENE 4 mph,30.44,2025-02-12T17:54:17-0500,1739400857,22,22,26,6,16,16,12,Cloudy,Cloudy,07,26,2025-01-12 17:54:00,05:10 PM,06:46 AM,Union,43.49,-71.02
10,True,65,65,N 3 mph,30.38,2025-02-12T18:00:27-0500,1739401227,27,27,29,9,27,27,17,Cloudy,Cloudy,07,26,2025-01-12 18:00:00,05:17 PM,06:51 AM,Walpole,43.08,-72.42
10,True,65,65,E 3 mph,30.41,2025-02-12T17:52:01-0500,1739400721,26,26,28,2,22,22,16,Cloudy,Cloudy,07,26,2025-01-12 17:52:00,05:14 PM,06:49 AM,Warner,43.28,-71.82
10,True,54,54,N 3 mph,30.43,2025-02-12T17:52:26-0500,1739400746,16,16,23,-3,16,16,3,P Cloudy,Partly Cloudy,35,29,2025-01-12 17:52:00,05:10 PM,06:51 AM,West Stewartstown,44.99,-71.53
10,True,69,69,ENE 3 mph,30.38,2025-02-12T17:58:09-0500,1739401089,27,27,31,4,24,24,19,Cloudy,Cloudy,07,26,2025-01-12 17:58:00,05:17 PM,06:50 AM,West Swanzey,42.87,-72.32
10,True,60,60,WNW 2 mph,30.4,2025-02-12T17:52:55-0500,1739400775,21,21,28,0,21,21,10,Cloudy,Cloudy,07,26,2025-01-12 17:52:00,05:11 PM,06:50 AM,Whitefield,44.37,-71.61
10,True,74,74,ENE 4 mph,30.4,2025-02-12T17:58:37-0500,1739401117,26,26,29,10,21,21,18,Cloudy,Cloudy,07,26,2025-01-12 17:58:00,05:14 PM,06:48 AM,Wilton,42.85,-71.74
10,True,70,70,E 3 mph,30.38,2025-02-12T17:52:05-0500,1739400725,28,28,31,5,24,24,19,Cloudy,Cloudy,07,26,2025-01-12 17:52:00,05:17 PM,06:50 AM,Winchester,42.78,-72.39
10,True,61,61,E 4 mph,30.43,2025-02-12T17:51:19-0500,1739400679,23,23,27,3,17,17,11,Cloudy,Cloudy,07,26,2025-01-12 17:51:00,05:11 PM,06:47 AM,Wolfeboro,43.59,-71.21
10,True,55,55,WSW 2 mph,30.39,2025-02-12T17:50:37-0500,1739400637,27,27,30,6,27,27,13,M Cloudy,Mostly Cloudy,38,27,2025-01-12 17:50:00,05:13 PM,06:51 AM,Woodsville,44.15,-72.03
